{"type":"FeatureCollection", "features": [
{"type":"Feature","geometry":{"type":"Point","coordinates":[1129638.9719000012,1939680.0628999993]},"properties":{"NAME":"E119","ENGINE":"E119","ADDRESS":"6030 N AVONDALE AVE"}},
{"type":"Feature","geometry":{"type":"Point","coordinates":[1166483.931775,1841803.1332750022]},"properties":{"NAME":"E121","ENGINE":"E121","ADDRESS":"1724 W 95TH ST"}},
{"type":"Feature","geometry":{"type":"Point","coordinates":[1187102.9869000018,1820915.3376000002]},"properties":{"NAME":"E80","ENGINE":"E80","ADDRESS":"12701 S DOTY AVE"}},
{"type":"Feature","geometry":{"type":"Point","coordinates":[1174884.0493,1898272.5258999988]},"properties":{"NAME":"E1","ENGINE":"E1","ADDRESS":"419 S WELLS ST"}},
{"type":"Feature","geometry":{"type":"Point","coordinates":[1168592.1114000008,1905420.1185000017]},"properties":{"NAME":"E14","ENGINE":"E14","ADDRESS":"1129 W CHICAGO AVE"}},
{"type":"Feature","geometry":{"type":"Point","coordinates":[1166520.987399999,1875439.1863999963]},"properties":{"NAME":"E49","ENGINE":"E49","ADDRESS":"4401 S ASHLAND AVE"}},
{"type":"Feature","geometry":{"type":"Point","coordinates":[1173947.0434000008,1857781.2850999981]},"properties":{"NAME":"E54","ENGINE":"E54","ADDRESS":"7101 S PARNELL AVE"}},
{"type":"Feature","geometry":{"type":"Point","coordinates":[1172741.4805000015,1847448.5505999997]},"properties":{"NAME":"E73","ENGINE":"E73","ADDRESS":"8630 S EMERALD AVE"}},
{"type":"Feature","geometry":{"type":"Point","coordinates":[1150045.175900001,1873268.7141000032]},"properties":{"NAME":"E34","ENGINE":"E34","ADDRESS":"4034 W 47TH ST"}},
{"type":"Feature","geometry":{"type":"Point","coordinates":[1175771.3286000006,1836042.7665999979]},"properties":{"NAME":"E93","ENGINE":"E93","ADDRESS":"330 W 104TH ST"}},
{"type":"Feature","geometry":{"type":"Point","coordinates":[1127270.3627000004,1925316.387000002]},"properties":{"NAME":"E86","ENGINE":"E86","ADDRESS":"3918 N HARLEM AVE"}},
{"type":"Feature","geometry":{"type":"Point","coordinates":[1171864.8016000018,1913445.8407000005]},"properties":{"NAME":"E22","ENGINE":"E22","ADDRESS":"605 W ARMITAGE AVE"}},
{"type":"Feature","geometry":{"type":"Point","coordinates":[1149118.6138000004,1883893.1462000012]},"properties":{"NAME":"E99","ENGINE":"E99","ADDRESS":"3042 S KEDVALE AVE"}},
{"type":"Feature","geometry":{"type":"Point","coordinates":[1177742.7060999982,1905881.1740000024]},"properties":{"NAME":"E98","ENGINE":"E98","ADDRESS":"202 E CHICAGO AVE"}},
{"type":"Feature","geometry":{"type":"Point","coordinates":[1161653.987300001,1900094.501199998]},"properties":{"NAME":"E26","ENGINE":"E26","ADDRESS":"10 N LEAVITT ST"}},
{"type":"Feature","geometry":{"type":"Point","coordinates":[1171898.3431000002,1898588.8385000005]},"properties":{"NAME":"E5","ENGINE":"E5","ADDRESS":"324 S DESPLAINES ST"}},
{"type":"Feature","geometry":{"type":"Point","coordinates":[1154887.3625999987,1902705.5753000006]},"properties":{"NAME":"E44","ENGINE":"E44","ADDRESS":"412 N KEDZIE AVE"}},
{"type":"Feature","geometry":{"type":"Point","coordinates":[1138344.8553000018,1902437.9702999964]},"properties":{"NAME":"E96","ENGINE":"E96","ADDRESS":"439 N WALLER AVE"}},
{"type":"Feature","geometry":{"type":"Point","coordinates":[1166487.7111999989,1899837.9887999967]},"properties":{"NAME":"E103","ENGINE":"E103","ADDRESS":"25 S LAFLIN ST"}},
{"type":"Feature","geometry":{"type":"Point","coordinates":[1175220.5306000002,1889860.1648000032]},"properties":{"NAME":"E8","ENGINE":"E8","ADDRESS":"212 W CERMAK RD"}},
{"type":"Feature","geometry":{"type":"Point","coordinates":[1167371.053100001,1930795.680200003]},"properties":{"NAME":"E83","ENGINE":"E83","ADDRESS":"1200 W WILSON AVE"}},
{"type":"Feature","geometry":{"type":"Point","coordinates":[1194250.8502999991,1856906.1154000014]},"properties":{"NAME":"E126","ENGINE":"E126","ADDRESS":"7313 S KINGSTON AVE"}},
{"type":"Feature","geometry":{"type":"Point","coordinates":[1164422.6966749988,1940220.3992749974]},"properties":{"NAME":"E70/E59","ENGINE":"E70/59","ADDRESS":"6030 N CLARK ST"}},
{"type":"Feature","geometry":{"type":"Point","coordinates":[1142674.5802000016,1862455.887000002]},"properties":{"NAME":"E127","ENGINE":"E127","ADDRESS":"5200 W 63RD ST"}},
{"type":"Feature","geometry":{"type":"Point","coordinates":[1151173.4178999998,1853197.2974999994]},"properties":{"NAME":"E64","ENGINE":"E64","ADDRESS":"7659 S PULASKI RD"}},
{"type":"Feature","geometry":{"type":"Point","coordinates":[1170366.3002999984,1918590.8438000008]},"properties":{"NAME":"E55","ENGINE":"E55","ADDRESS":"2718 N HALSTED ST"}},
{"type":"Feature","geometry":{"type":"Point","coordinates":[1187032.039999999,1860952.039999999]},"properties":{"NAME":"E63","ENGINE":"E63","ADDRESS":"1440 E 67TH ST"}},
{"type":"Feature","geometry":{"type":"Point","coordinates":[1132784.4871000014,1914860.5381999984]},"properties":{"NAME":"E125","ENGINE":"E125","ADDRESS":"2323 N NATCHEZ AVE"}},
{"type":"Feature","geometry":{"type":"Point","coordinates":[1199831.1459,1816760.6462000012]},"properties":{"NAME":"E97","ENGINE":"E97","ADDRESS":"13359 S BURLEY AVE"}},
{"type":"Feature","geometry":{"type":"Point","coordinates":[1178468.6493000016,1902170.2326999977]},"properties":{"NAME":"E13","ENGINE":"E13","ADDRESS":"259 N COLUMBUS DR"}},
{"type":"Feature","geometry":{"type":"Point","coordinates":[1180501.9875999987,1860785.6524000019]},"properties":{"NAME":"E47","ENGINE":"E47","ADDRESS":"432 E MARQUETTE RD"}},
{"type":"Feature","geometry":{"type":"Point","coordinates":[1162351.4875000007,1870717.0289999992]},"properties":{"NAME":"E123","ENGINE":"E123","ADDRESS":"2215 W 51ST ST"}},
{"type":"Feature","geometry":{"type":"Point","coordinates":[1157941.5357000008,1895180.3654000014]},"properties":{"NAME":"E107","ENGINE":"E107","ADDRESS":"1101 S CALIFORNIA AVE"}},
{"type":"Feature","geometry":{"type":"Point","coordinates":[1198089.6688,1843793.371600002]},"properties":{"NAME":"E46","ENGINE":"E46","ADDRESS":"3027 E 93RD ST"}},
{"type":"Feature","geometry":{"type":"Point","coordinates":[1160072.9842999987,1908481.3438000008]},"properties":{"NAME":"E57","ENGINE":"E57","ADDRESS":"1244 N WESTERN AVE"}},
{"type":"Feature","geometry":{"type":"Point","coordinates":[1163054.6028750017,1948735.2446499988]},"properties":{"NAME":"E102","ENGINE":"E102","ADDRESS":"7340 N CLARK ST"}},
{"type":"Feature","geometry":{"type":"Point","coordinates":[1119421.3414000012,1934602.3438000008]},"properties":{"NAME":"E11","ENGINE":"E11","ADDRESS":"5343 N CUMBERLAND AVE"}},
{"type":"Feature","geometry":{"type":"Point","coordinates":[1162431.0931000002,1925333.1246000007]},"properties":{"NAME":"E112","ENGINE":"E112","ADDRESS":"3801 N DAMEN AVE"}},
{"type":"Feature","geometry":{"type":"Point","coordinates":[1172392.7399999984,1825476.740000002]},"properties":{"NAME":"E115","ENGINE":"E115","ADDRESS":"11940 S PEORIA ST"}},
{"type":"Feature","geometry":{"type":"Point","coordinates":[1138315.2067999989,1942437.8253000006]},"properties":{"NAME":"E79","ENGINE":"E79","ADDRESS":"6424 N LEHIGH AVE"}},
{"type":"Feature","geometry":{"type":"Point","coordinates":[1168708.1231000014,1887053.9209000021]},"properties":{"NAME":"E28","ENGINE":"E28","ADDRESS":"2534 S THROOP ST"}},
{"type":"Feature","geometry":{"type":"Point","coordinates":[1166987.8312,1850748.976499997]},"properties":{"NAME":"E129","ENGINE":"E129","ADDRESS":"8120 S ASHLAND AVE"}},
{"type":"Feature","geometry":{"type":"Point","coordinates":[1140815.7525000013,1930257.2110999972]},"properties":{"NAME":"E108","ENGINE":"E108","ADDRESS":"4625 N MILWAUKEE AVE"}},
{"type":"Feature","geometry":{"type":"Point","coordinates":[1175740.672600001,1903504.2018000036]},"properties":{"NAME":"E42","ENGINE":"E42","ADDRESS":"55 W ILLINOIS ST"}},
{"type":"Feature","geometry":{"type":"Point","coordinates":[1176718.0111999996,1878417.8932000026]},"properties":{"NAME":"E16","ENGINE":"E16","ADDRESS":"4005 S DEARBORN ST"}},
{"type":"Feature","geometry":{"type":"Point","coordinates":[1147372.5258999988,1926447.8313999996]},"properties":{"NAME":"E69","ENGINE":"E69","ADDRESS":"4017 N TRIPP AVE"}},
{"type":"Feature","geometry":{"type":"Point","coordinates":[1160960.4941000007,1920638.4795999974]},"properties":{"NAME":"E56","ENGINE":"E56","ADDRESS":"2214 W BARRY AVE"}},
{"type":"Feature","geometry":{"type":"Point","coordinates":[1162441.2054999992,1858969.1185000017]},"properties":{"NAME":"E101","ENGINE":"E101","ADDRESS":"2240 W 69TH ST"}},
{"type":"Feature","geometry":{"type":"Point","coordinates":[1148804.5837999992,1939477.5969000012]},"properties":{"NAME":"E89","ENGINE":"E89","ADDRESS":"3945 W PETERSON AVE"}},
{"type":"Feature","geometry":{"type":"Point","coordinates":[1150158.2399999984,1891658.8400000036]},"properties":{"NAME":"E38","ENGINE":"E38","ADDRESS":"3949 W 16TH ST"}},
{"type":"Feature","geometry":{"type":"Point","coordinates":[1166797.7886000015,1865029.501199998]},"properties":{"NAME":"E116","ENGINE":"E116","ADDRESS":"5955 S ASHLAND AVE"}},
{"type":"Feature","geometry":{"type":"Point","coordinates":[1156313.7974000014,1887960.127700001]},"properties":{"NAME":"E109","ENGINE":"E109","ADDRESS":"2358 S WHIPPLE ST"}},
{"type":"Feature","geometry":{"type":"Point","coordinates":[1156971.5155000016,1876741.9949999973]},"properties":{"NAME":"E65","ENGINE":"E65","ADDRESS":"3002 W 42ND ST"}},
{"type":"Feature","geometry":{"type":"Point","coordinates":[1201026.8959,1828168.2696999982]},"properties":{"NAME":"E104","ENGINE":"E104","ADDRESS":"11641 S AVENUE O"}},
{"type":"Feature","geometry":{"type":"Point","coordinates":[1149533.5857999995,1911480.5983999968]},"properties":{"NAME":"E76","ENGINE":"E76","ADDRESS":"1747 N PULASKI RD"}},
{"type":"Feature","geometry":{"type":"Point","coordinates":[1178315.4510000013,1825447.1740000024]},"properties":{"NAME":"E75","ENGINE":"E75","ADDRESS":"11958 S STATE ST"}},
{"type":"Feature","geometry":{"type":"Point","coordinates":[1159790.2710000016,1934568.726499997]},"properties":{"NAME":"E110","ENGINE":"E110","ADDRESS":"2322 W FOSTER AVE"}},
{"type":"Feature","geometry":{"type":"Point","coordinates":[1178628.6209000014,1829438.945600003]},"properties":{"NAME":"E62","ENGINE":"E62","ADDRESS":"34 E 114TH ST"}},
{"type":"Feature","geometry":{"type":"Point","coordinates":[1143420.3968000002,1904975.8438000008]},"properties":{"NAME":"E117","ENGINE":"E117","ADDRESS":"4900 W CHICAGO AVE"}},
{"type":"Feature","geometry":{"type":"Point","coordinates":[1163433.4836000018,1890521.9672000036]},"properties":{"NAME":"E23","ENGINE":"E23","ADDRESS":"1915 S DAMEN AVE"}},
{"type":"Feature","geometry":{"type":"Point","coordinates":[1182276.5775000006,1874631.695600003]},"properties":{"NAME":"E45","ENGINE":"E45","ADDRESS":"4600 S COTTAGE GROVE AVE"}},
{"type":"Feature","geometry":{"type":"Point","coordinates":[1188834.3852000013,1852268.2110999972]},"properties":{"NAME":"E72","ENGINE":"E72","ADDRESS":"7974 S SOUTH CHICAGO AVE"}},
{"type":"Feature","geometry":{"type":"Point","coordinates":[1156611.3328999989,1941455.4271000028]},"properties":{"NAME":"E71","ENGINE":"E71","ADDRESS":"6239 N CALIFORNIA AVE"}},
{"type":"Feature","geometry":{"type":"Point","coordinates":[1179249.6143000014,1882292.0722000003]},"properties":{"NAME":"E19","ENGINE":"E19","ADDRESS":"3421 S CALUMET AVE"}},
{"type":"Feature","geometry":{"type":"Point","coordinates":[1134761.0808000006,1866826.0691]},"properties":{"NAME":"E32","ENGINE":"E32","ADDRESS":"5559 S NARRAGANSETT AVE"}},
{"type":"Feature","geometry":{"type":"Point","coordinates":[1178637.5203999989,1852587.7819999978]},"properties":{"NAME":"E122","ENGINE":"E122","ADDRESS":"101 E 79TH ST"}},
{"type":"Feature","geometry":{"type":"Point","coordinates":[1162823.0929999985,1912753.2819999978]},"properties":{"NAME":"E35","ENGINE":"E35","ADDRESS":"1901 N DAMEN AVE"}},
{"type":"Feature","geometry":{"type":"Point","coordinates":[1155676.3471999988,1922483.3808000013]},"properties":{"NAME":"E106","ENGINE":"E106","ADDRESS":"3401 N ELSTON AVE"}},
{"type":"Feature","geometry":{"type":"Point","coordinates":[1172189.6732,1908360.7141000032]},"properties":{"NAME":"E4","ENGINE":"E4","ADDRESS":"548 W DIVISION ST"}},
{"type":"Feature","geometry":{"type":"Point","coordinates":[1165604.2430000007,1907698.3037]},"properties":{"NAME":"E30","ENGINE":"E30","ADDRESS":"1125 N ASHLAND AVE"}},
{"type":"Feature","geometry":{"type":"Point","coordinates":[1195107.5907000005,1835962.0196999982]},"properties":{"NAME":"E81","ENGINE":"E81","ADDRESS":"10458 S HOXIE AVE"}},
{"type":"Feature","geometry":{"type":"Point","coordinates":[1168361.9638999999,1924823.3962000012]},"properties":{"NAME":"E78","ENGINE":"E78","ADDRESS":"1052 W WAVELAND AVE"}},
{"type":"Feature","geometry":{"type":"Point","coordinates":[1141629.489599999,1896912.7603999972]},"properties":{"NAME":"E113","ENGINE":"E113","ADDRESS":"5212 W HARRISON ST"}},
{"type":"Feature","geometry":{"type":"Point","coordinates":[1142977.1141000018,1920734.8037]},"properties":{"NAME":"E7","ENGINE":"E7","ADDRESS":"4911 W BELMONT AVE"}},
{"type":"Feature","geometry":{"type":"Point","coordinates":[1177035.0887000002,1865786.6669000015]},"properties":{"NAME":"E84","ENGINE":"E84","ADDRESS":"21 W 59TH ST"}},
{"type":"Feature","geometry":{"type":"Point","coordinates":[1202251.8638000004,1835088.6462000012]},"properties":{"NAME":"E74","ENGINE":"E74","ADDRESS":"10615 S EWING AVE"}},
{"type":"Feature","geometry":{"type":"Point","coordinates":[1152958.2399999984,1865111.039999999]},"properties":{"NAME":"E88","ENGINE":"E88","ADDRESS":"3637 W 59TH ST"}},
{"type":"Feature","geometry":{"type":"Point","coordinates":[1165760.6524999999,1831417.2449999973]},"properties":{"NAME":"E120","ENGINE":"E120","ADDRESS":"11035 S HOMEWOOD AVE"}},
{"type":"Feature","geometry":{"type":"Point","coordinates":[1172386.1944999993,1871658.0998999998]},"properties":{"NAME":"E50","ENGINE":"E50","ADDRESS":"5000 S UNION AVE"}},
{"type":"Feature","geometry":{"type":"Point","coordinates":[1140808.2745999992,1913089.9672000036]},"properties":{"NAME":"E68","ENGINE":"E68","ADDRESS":"5258 W GRAND AVE"}},
{"type":"Feature","geometry":{"type":"Point","coordinates":[1157499.2709,1830934.137000002]},"properties":{"NAME":"E92","ENGINE":"E92","ADDRESS":"3112 W 111TH ST"}},
{"type":"Feature","geometry":{"type":"Point","coordinates":[1154160.5493,1929387.9641000032]},"properties":{"NAME":"E124","ENGINE":"E124","ADDRESS":"4426 N KEDZIE AVE"}},
{"type":"Feature","geometry":{"type":"Point","coordinates":[1149326.435899999,1918617.5505999997]},"properties":{"NAME":"E91","ENGINE":"E91","ADDRESS":"2827 N PULASKI RD"}},
{"type":"Feature","geometry":{"type":"Point","coordinates":[1157570.0927999988,1914421.7387999967]},"properties":{"NAME":"E43","ENGINE":"E43","ADDRESS":"2179 N STAVE ST"}},
{"type":"Feature","geometry":{"type":"Point","coordinates":[1149552.240699999,1900550.6648000032]},"properties":{"NAME":"E95","ENGINE":"E95","ADDRESS":"4003 W WEST END AVE"}},
{"type":"Feature","geometry":{"type":"Point","coordinates":[1137056.4891000018,1924764.2110999972]},"properties":{"NAME":"E94","ENGINE":"E94","ADDRESS":"5758 W GRACE ST"}},
{"type":"Feature","geometry":{"type":"Point","coordinates":[1183393.0447999984,1844734.1030000001]},"properties":{"NAME":"E82","ENGINE":"E82","ADDRESS":"817 E 91ST ST"}},
{"type":"Feature","geometry":{"type":"Point","coordinates":[1168733.4204250015,1893963.3293000013]},"properties":{"NAME":"E18","ENGINE":"E18","ADDRESS":"1360 N BLUE ISLAND AVE"}},
{"type":"Feature","geometry":{"type":"Point","coordinates":[1172612.5571000017,1881594.0381999984]},"properties":{"NAME":"E29","ENGINE":"E29","ADDRESS":"3509 S LOWE AVE"}},
{"type":"Feature","geometry":{"type":"Point","coordinates":[1166014.8286000006,1882622.2141000032]},"properties":{"NAME":"E39","ENGINE":"E39","ADDRESS":"1618 W 33RD PL"}},
{"type":"Feature","geometry":{"type":"Point","coordinates":[1184845.5538000017,1868908.5042999983]},"properties":{"NAME":"E60","ENGINE":"E60","ADDRESS":"1150 E 55TH ST"}},
{"type":"Feature","geometry":{"type":"Point","coordinates":[1156342.1777999997,1851078.5722000003]},"properties":{"NAME":"E15","ENGINE":"E15","ADDRESS":"8026 S KEDZIE AVE"}}
]}